{
    "Stations": [{
        "Address": {
            "City": "Fairfax",
            "State": "VA",
            "Street": "9550 Saintsbury Drive",
            "Zip": "22031"
        },
        "Code": "K08",
        "Lat": 38.8776011238,
        "LineCode1": "OR",
        "LineCode2": null,
        "LineCode3": null,
        "LineCode4": null,
        "Lon": -77.2726222569,
        "Name": "Vienna",
        "StationTogether1": "",
        "StationTogether2": ""
    }, {
        "Address": {
            "City": "Vienna",
            "State": "VA",
            "Street": "2700 Gallows Road",
            "Zip": "22180"
        },
        "Code": "K07",
        "Lat": 38.8836251359,
        "LineCode1": "OR",
        "LineCode2": null,
        "LineCode3": null,
        "LineCode4": null,
        "Lon": -77.2271606721,
        "Name": "Dunn Loring",
        "StationTogether1": "",
        "StationTogether2": ""
    }, {
        "Address": {
            "City": "Falls Church",
            "State": "VA",
            "Street": "7040 Haycock Road",
            "Zip": "22043"
        },
        "Code": "K06",
        "Lat": 38.900780551,
        "LineCode1": "OR",
        "LineCode2": null,
        "LineCode3": null,
        "LineCode4": null,
        "Lon": -77.1890948225,
        "Name": "W Falls Church",
        "StationTogether1": "",
        "StationTogether2": ""
    }, {
        "Address": {
            "City": "Arlington",
            "State": "VA",
            "Street": "2001 N. Sycamore St.",
            "Zip": "22205"
        },
        "Code": "K05",
        "Lat": 38.8859531663,
        "LineCode1": "OR",
        "LineCode2": "SV",
        "LineCode3": null,
        "LineCode4": null,
        "Lon": -77.1568830199,
        "Name": "E Falls Church",
        "StationTogether1": "",
        "StationTogether2": ""
    }, {
        "Address": {
            "City": "Arlington",
            "State": "VA",
            "Street": "4230 Fairfax Drive",
            "Zip": "22201"
        },
        "Code": "K04",
        "Lat": 38.8821828738,
        "LineCode1": "OR",
        "LineCode2": "SV",
        "LineCode3": null,
        "LineCode4": null,
        "Lon": -77.113168835,
        "Name": "Ballston",
        "StationTogether1": "",
        "StationTogether2": ""
    }, {
        "Address": {
            "City": "Arlington",
            "State": "VA",
            "Street": "3600 Fairfax Drive",
            "Zip": "22201"
        },
        "Code": "K03",
        "Lat": 38.8833661518,
        "LineCode1": "OR",
        "LineCode2": "SV",
        "LineCode3": null,
        "LineCode4": null,
        "Lon": -77.1029772942,
        "Name": "Virginia Square",
        "StationTogether1": "",
        "StationTogether2": ""
    }, {
        "Address": {
            "City": "Arlington",
            "State": "VA",
            "Street": "3100 Wilson Blvd",
            "Zip": "22201"
        },
        "Code": "K02",
        "Lat": 38.886704839,
        "LineCode1": "OR",
        "LineCode2": "SV",
        "LineCode3": null,
        "LineCode4": null,
        "Lon": -77.0953940983,
        "Name": "Clarendon",
        "StationTogether1": "",
        "StationTogether2": ""
    }, {
        "Address": {
            "City": "Arlington",
            "State": "VA",
            "Street": "2100 Wilson Blvd",
            "Zip": "22201"
        },
        "Code": "K01",
        "Lat": 38.8901755312,
        "LineCode1": "OR",
        "LineCode2": "SV",
        "LineCode3": null,
        "LineCode4": null,
        "Lon": -77.087131231,
        "Name": "Court House",
        "StationTogether1": "",
        "StationTogether2": ""
    }, {
        "Address": {
            "City": "Arlington",
            "State": "VA",
            "Street": "1850 N. Moore Street",
            "Zip": "22209"
        },
        "Code": "C05",
        "Lat": 38.8959790962,
        "LineCode1": "BL",
        "LineCode2": "OR",
        "LineCode3": "SV",
        "LineCode4": null,
        "Lon": -77.0709086853,
        "Name": "Rosslyn",
        "StationTogether1": "",
        "StationTogether2": ""
    }, {
        "Address": {
            "City": "Washington",
            "State": "DC",
            "Street": "2301 I St. NW",
            "Zip": "20037"
        },
        "Code": "C04",
        "Lat": 38.9006980092,
        "LineCode1": "BL",
        "LineCode2": "OR",
        "LineCode3": "SV",
        "LineCode4": null,
        "Lon": -77.050277739,
        "Name": "Foggy Bottom",
        "StationTogether1": "",
        "StationTogether2": ""
    }, {
        "Address": {
            "City": "Washington",
            "State": "DC",
            "Street": "900 18th St. NW",
            "Zip": "20006"
        },
        "Code": "C03",
        "Lat": 38.9013128941,
        "LineCode1": "BL",
        "LineCode2": "OR",
        "LineCode3": "SV",
        "LineCode4": null,
        "Lon": -77.0406954151,
        "Name": "Farragut West",
        "StationTogether1": "",
        "StationTogether2": ""
    }, {
        "Address": {
            "City": "Washington",
            "State": "DC",
            "Street": "1400 I St. NW",
            "Zip": "20005"
        },
        "Code": "C02",
        "Lat": 38.9013327968,
        "LineCode1": "BL",
        "LineCode2": "OR",
        "LineCode3": "SV",
        "LineCode4": null,
        "Lon": -77.0336341721,
        "Name": "McPherson Square",
        "StationTogether1": "",
        "StationTogether2": ""
    }, {
        "Address": {
            "City": "Washington",
            "State": "DC",
            "Street": "607 13th St. NW",
            "Zip": "20005"
        },
        "Code": "C01",
        "Lat": 38.8983144732,
        "LineCode1": "BL",
        "LineCode2": "OR",
        "LineCode3": "SV",
        "LineCode4": null,
        "Lon": -77.0280779971,
        "Name": "Metro Center",
        "StationTogether1": "A01",
        "StationTogether2": ""
    }, {
        "Address": {
            "City": "Washington",
            "State": "DC",
            "Street": "302 12th St. NW",
            "Zip": "20004"
        },
        "Code": "D01",
        "Lat": 38.8931808718,
        "LineCode1": "BL",
        "LineCode2": "OR",
        "LineCode3": "SV",
        "LineCode4": null,
        "Lon": -77.0281319984,
        "Name": "Federal Triangle",
        "StationTogether1": "",
        "StationTogether2": ""
    }, {
        "Address": {
            "City": "Washington",
            "State": "DC",
            "Street": "1200 Independence Avenue SW",
            "Zip": "20004"
        },
        "Code": "D02",
        "Lat": 38.888018702,
        "LineCode1": "BL",
        "LineCode2": "OR",
        "LineCode3": "SV",
        "LineCode4": null,
        "Lon": -77.0280662342,
        "Name": "Smithsonian",
        "StationTogether1": "",
        "StationTogether2": ""
    }, {
        "Address": {
            "City": "Washington",
            "State": "DC",
            "Street": "600 Maryland Avenue SW",
            "Zip": "20024"
        },
        "Code": "D03",
        "Lat": 38.8848377279,
        "LineCode1": "BL",
        "LineCode2": "OR",
        "LineCode3": "SV",
        "LineCode4": null,
        "Lon": -77.021908484,
        "Name": "L'Enfant Plaza",
        "StationTogether1": "F03",
        "StationTogether2": ""
    }, {
        "Address": {
            "City": "Washington",
            "State": "DC",
            "Street": "401 3rd Street SW",
            "Zip": "20024"
        },
        "Code": "D04",
        "Lat": 38.8850723551,
        "LineCode1": "BL",
        "LineCode2": "OR",
        "LineCode3": "SV",
        "LineCode4": null,
        "Lon": -77.0158682169,
        "Name": "Federal Center SW",
        "StationTogether1": "",
        "StationTogether2": ""
    }, {
        "Address": {
            "City": "Washington",
            "State": "DC",
            "Street": "355 First Street SE",
            "Zip": "20003"
        },
        "Code": "D05",
        "Lat": 38.8850625009,
        "LineCode1": "BL",
        "LineCode2": "OR",
        "LineCode3": "SV",
        "LineCode4": null,
        "Lon": -77.0051394199,
        "Name": "Capitol South",
        "StationTogether1": "",
        "StationTogether2": ""
    }, {
        "Address": {
            "City": "Washington",
            "State": "DC",
            "Street": "701 Pennsylvania Avenue SE",
            "Zip": "20003"
        },
        "Code": "D06",
        "Lat": 38.8846222608,
        "LineCode1": "BL",
        "LineCode2": "OR",
        "LineCode3": "SV",
        "LineCode4": null,
        "Lon": -76.9960011267,
        "Name": "Eastern Market",
        "StationTogether1": "",
        "StationTogether2": ""
    }, {
        "Address": {
            "City": "Washington",
            "State": "DC",
            "Street": "700 14th Street SE",
            "Zip": "20003"
        },
        "Code": "D07",
        "Lat": 38.8812632736,
        "LineCode1": "BL",
        "LineCode2": "OR",
        "LineCode3": "SV",
        "LineCode4": null,
        "Lon": -76.9854953196,
        "Name": "Potomac Avenue",
        "StationTogether1": "",
        "StationTogether2": ""
    }, {
        "Address": {
            "City": "Washington",
            "State": "DC",
            "Street": "192 19th St. SE",
            "Zip": "20003"
        },
        "Code": "D08",
        "Lat": 38.8867090898,
        "LineCode1": "BL",
        "LineCode2": "OR",
        "LineCode3": "SV",
        "LineCode4": null,
        "Lon": -76.9770889014,
        "Name": "Stadium Armory",
        "StationTogether1": "",
        "StationTogether2": ""
    }, {
        "Address": {
            "City": "Washington",
            "State": "DC",
            "Street": "4000 Minnesota Avenue NE",
            "Zip": "20019"
        },
        "Code": "D09",
        "Lat": 38.899191223,
        "LineCode1": "OR",
        "LineCode2": null,
        "LineCode3": null,
        "LineCode4": null,
        "Lon": -76.9467477336,
        "Name": "Minnesota Avenue",
        "StationTogether1": "",
        "StationTogether2": ""
    }, {
        "Address": {
            "City": "Washington",
            "State": "DC",
            "Street": "4720 Minnesota Avenue NE",
            "Zip": "20019"
        },
        "Code": "D10",
        "Lat": 38.9081784965,
        "LineCode1": "OR",
        "LineCode2": null,
        "LineCode3": null,
        "LineCode4": null,
        "Lon": -76.935256783,
        "Name": "Deanwood",
        "StationTogether1": "",
        "StationTogether2": ""
    }, {
        "Address": {
            "City": "Cheverly",
            "State": "MD",
            "Street": "5501 Columbia Park",
            "Zip": "20785"
        },
        "Code": "D11",
        "Lat": 38.9166318546,
        "LineCode1": "OR",
        "LineCode2": null,
        "LineCode3": null,
        "LineCode4": null,
        "Lon": -76.916628044,
        "Name": "Cheverly",
        "StationTogether1": "",
        "StationTogether2": ""
    }, {
        "Address": {
            "City": "Hyattsville",
            "State": "MD",
            "Street": "3000 Pennsy Drive",
            "Zip": "20785"
        },
        "Code": "D12",
        "Lat": 38.9335062344,
        "LineCode1": "OR",
        "LineCode2": null,
        "LineCode3": null,
        "LineCode4": null,
        "Lon": -76.8911979676,
        "Name": "Landover",
        "StationTogether1": "",
        "StationTogether2": ""
    }, {
        "Address": {
            "City": "New Carrollton",
            "State": "MD",
            "Street": "4700 Garden City Drive",
            "Zip": "20784"
        },
        "Code": "D13",
        "Lat": 38.9477848558,
        "LineCode1": "OR",
        "LineCode2": null,
        "LineCode3": null,
        "LineCode4": null,
        "Lon": -76.8718412865,
        "Name": "New Carrollton",
        "StationTogether1": "",
        "StationTogether2": ""
    }, {
        "Address": {
            "City": "Fairfax",
            "State": "VA",
            "Street": "9550 Saintsbury Drive",
            "Zip": "22031"
        },
        "Code": "K08",
        "Lat": 38.8776011238,
        "LineCode1": "OR",
        "LineCode2": null,
        "LineCode3": null,
        "LineCode4": null,
        "Lon": -77.2726222569,
        "Name": "Vienna",
        "StationTogether1": "",
        "StationTogether2": ""
    }, {
        "Address": {
            "City": "Vienna",
            "State": "VA",
            "Street": "2700 Gallows Road",
            "Zip": "22180"
        },
        "Code": "K07",
        "Lat": 38.8836251359,
        "LineCode1": "OR",
        "LineCode2": null,
        "LineCode3": null,
        "LineCode4": null,
        "Lon": -77.2271606721,
        "Name": "Dunn Loring",
        "StationTogether1": "",
        "StationTogether2": ""
    }, {
        "Address": {
            "City": "Falls Church",
            "State": "VA",
            "Street": "7040 Haycock Road",
            "Zip": "22043"
        },
        "Code": "K06",
        "Lat": 38.900780551,
        "LineCode1": "OR",
        "LineCode2": null,
        "LineCode3": null,
        "LineCode4": null,
        "Lon": -77.1890948225,
        "Name": "W Falls Church",
        "StationTogether1": "",
        "StationTogether2": ""
    }, {
        "Address": {
            "City": "Arlington",
            "State": "VA",
            "Street": "2001 N. Sycamore St.",
            "Zip": "22205"
        },
        "Code": "K05",
        "Lat": 38.8859531663,
        "LineCode1": "OR",
        "LineCode2": "SV",
        "LineCode3": null,
        "LineCode4": null,
        "Lon": -77.1568830199,
        "Name": "E Falls Church",
        "StationTogether1": "",
        "StationTogether2": ""
    }, {
        "Address": {
            "City": "Arlington",
            "State": "VA",
            "Street": "4230 Fairfax Drive",
            "Zip": "22201"
        },
        "Code": "K04",
        "Lat": 38.8821828738,
        "LineCode1": "OR",
        "LineCode2": "SV",
        "LineCode3": null,
        "LineCode4": null,
        "Lon": -77.113168835,
        "Name": "Ballston",
        "StationTogether1": "",
        "StationTogether2": ""
    }, {
        "Address": {
            "City": "Arlington",
            "State": "VA",
            "Street": "3600 Fairfax Drive",
            "Zip": "22201"
        },
        "Code": "K03",
        "Lat": 38.8833661518,
        "LineCode1": "OR",
        "LineCode2": "SV",
        "LineCode3": null,
        "LineCode4": null,
        "Lon": -77.1029772942,
        "Name": "Virginia Square",
        "StationTogether1": "",
        "StationTogether2": ""
    }, {
        "Address": {
            "City": "Arlington",
            "State": "VA",
            "Street": "3100 Wilson Blvd",
            "Zip": "22201"
        },
        "Code": "K02",
        "Lat": 38.886704839,
        "LineCode1": "OR",
        "LineCode2": "SV",
        "LineCode3": null,
        "LineCode4": null,
        "Lon": -77.0953940983,
        "Name": "Clarendon",
        "StationTogether1": "",
        "StationTogether2": ""
    }, {
        "Address": {
            "City": "Arlington",
            "State": "VA",
            "Street": "2100 Wilson Blvd",
            "Zip": "22201"
        },
        "Code": "K01",
        "Lat": 38.8901755312,
        "LineCode1": "OR",
        "LineCode2": "SV",
        "LineCode3": null,
        "LineCode4": null,
        "Lon": -77.087131231,
        "Name": "Court House",
        "StationTogether1": "",
        "StationTogether2": ""
    }, {
        "Address": {
            "City": "Arlington",
            "State": "VA",
            "Street": "1850 N. Moore Street",
            "Zip": "22209"
        },
        "Code": "C05",
        "Lat": 38.8959790962,
        "LineCode1": "BL",
        "LineCode2": "OR",
        "LineCode3": "SV",
        "LineCode4": null,
        "Lon": -77.0709086853,
        "Name": "Rosslyn",
        "StationTogether1": "",
        "StationTogether2": ""
    }, {
        "Address": {
            "City": "Washington",
            "State": "DC",
            "Street": "2301 I St. NW",
            "Zip": "20037"
        },
        "Code": "C04",
        "Lat": 38.9006980092,
        "LineCode1": "BL",
        "LineCode2": "OR",
        "LineCode3": "SV",
        "LineCode4": null,
        "Lon": -77.050277739,
        "Name": "Foggy Bottom",
        "StationTogether1": "",
        "StationTogether2": ""
    }, {
        "Address": {
            "City": "Washington",
            "State": "DC",
            "Street": "900 18th St. NW",
            "Zip": "20006"
        },
        "Code": "C03",
        "Lat": 38.9013128941,
        "LineCode1": "BL",
        "LineCode2": "OR",
        "LineCode3": "SV",
        "LineCode4": null,
        "Lon": -77.0406954151,
        "Name": "Farragut West",
        "StationTogether1": "",
        "StationTogether2": ""
    }, {
        "Address": {
            "City": "Washington",
            "State": "DC",
            "Street": "1400 I St. NW",
            "Zip": "20005"
        },
        "Code": "C02",
        "Lat": 38.9013327968,
        "LineCode1": "BL",
        "LineCode2": "OR",
        "LineCode3": "SV",
        "LineCode4": null,
        "Lon": -77.0336341721,
        "Name": "McPherson Square",
        "StationTogether1": "",
        "StationTogether2": ""
    }, {
        "Address": {
            "City": "Washington",
            "State": "DC",
            "Street": "607 13th St. NW",
            "Zip": "20005"
        },
        "Code": "C01",
        "Lat": 38.8983144732,
        "LineCode1": "BL",
        "LineCode2": "OR",
        "LineCode3": "SV",
        "LineCode4": null,
        "Lon": -77.0280779971,
        "Name": "Metro Center",
        "StationTogether1": "A01",
        "StationTogether2": ""
    }, {
        "Address": {
            "City": "Washington",
            "State": "DC",
            "Street": "302 12th St. NW",
            "Zip": "20004"
        },
        "Code": "D01",
        "Lat": 38.8931808718,
        "LineCode1": "BL",
        "LineCode2": "OR",
        "LineCode3": "SV",
        "LineCode4": null,
        "Lon": -77.0281319984,
        "Name": "Federal Triangle",
        "StationTogether1": "",
        "StationTogether2": ""
    }, {
        "Address": {
            "City": "Washington",
            "State": "DC",
            "Street": "1200 Independence Avenue SW",
            "Zip": "20004"
        },
        "Code": "D02",
        "Lat": 38.888018702,
        "LineCode1": "BL",
        "LineCode2": "OR",
        "LineCode3": "SV",
        "LineCode4": null,
        "Lon": -77.0280662342,
        "Name": "Smithsonian",
        "StationTogether1": "",
        "StationTogether2": ""
    }, {
        "Address": {
            "City": "Washington",
            "State": "DC",
            "Street": "600 Maryland Avenue SW",
            "Zip": "20024"
        },
        "Code": "D03",
        "Lat": 38.8848377279,
        "LineCode1": "BL",
        "LineCode2": "OR",
        "LineCode3": "SV",
        "LineCode4": null,
        "Lon": -77.021908484,
        "Name": "L'Enfant Plaza",
        "StationTogether1": "F03",
        "StationTogether2": ""
    }, {
        "Address": {
            "City": "Washington",
            "State": "DC",
            "Street": "401 3rd Street SW",
            "Zip": "20024"
        },
        "Code": "D04",
        "Lat": 38.8850723551,
        "LineCode1": "BL",
        "LineCode2": "OR",
        "LineCode3": "SV",
        "LineCode4": null,
        "Lon": -77.0158682169,
        "Name": "Federal Center SW",
        "StationTogether1": "",
        "StationTogether2": ""
    }, {
        "Address": {
            "City": "Washington",
            "State": "DC",
            "Street": "355 First Street SE",
            "Zip": "20003"
        },
        "Code": "D05",
        "Lat": 38.8850625009,
        "LineCode1": "BL",
        "LineCode2": "OR",
        "LineCode3": "SV",
        "LineCode4": null,
        "Lon": -77.0051394199,
        "Name": "Capitol South",
        "StationTogether1": "",
        "StationTogether2": ""
    }, {
        "Address": {
            "City": "Washington",
            "State": "DC",
            "Street": "701 Pennsylvania Avenue SE",
            "Zip": "20003"
        },
        "Code": "D06",
        "Lat": 38.8846222608,
        "LineCode1": "BL",
        "LineCode2": "OR",
        "LineCode3": "SV",
        "LineCode4": null,
        "Lon": -76.9960011267,
        "Name": "Eastern Market",
        "StationTogether1": "",
        "StationTogether2": ""
    }, {
        "Address": {
            "City": "Washington",
            "State": "DC",
            "Street": "700 14th Street SE",
            "Zip": "20003"
        },
        "Code": "D07",
        "Lat": 38.8812632736,
        "LineCode1": "BL",
        "LineCode2": "OR",
        "LineCode3": "SV",
        "LineCode4": null,
        "Lon": -76.9854953196,
        "Name": "Potomac Avenue",
        "StationTogether1": "",
        "StationTogether2": ""
    }, {
        "Address": {
            "City": "Washington",
            "State": "DC",
            "Street": "192 19th St. SE",
            "Zip": "20003"
        },
        "Code": "D08",
        "Lat": 38.8867090898,
        "LineCode1": "BL",
        "LineCode2": "OR",
        "LineCode3": "SV",
        "LineCode4": null,
        "Lon": -76.9770889014,
        "Name": "Stadium Armory",
        "StationTogether1": "",
        "StationTogether2": ""
    }, {
        "Address": {
            "City": "Washington",
            "State": "DC",
            "Street": "4000 Minnesota Avenue NE",
            "Zip": "20019"
        },
        "Code": "D09",
        "Lat": 38.899191223,
        "LineCode1": "OR",
        "LineCode2": null,
        "LineCode3": null,
        "LineCode4": null,
        "Lon": -76.9467477336,
        "Name": "Minnesota Avenue",
        "StationTogether1": "",
        "StationTogether2": ""
    }, {
        "Address": {
            "City": "Washington",
            "State": "DC",
            "Street": "4720 Minnesota Avenue NE",
            "Zip": "20019"
        },
        "Code": "D10",
        "Lat": 38.9081784965,
        "LineCode1": "OR",
        "LineCode2": null,
        "LineCode3": null,
        "LineCode4": null,
        "Lon": -76.935256783,
        "Name": "Deanwood",
        "StationTogether1": "",
        "StationTogether2": ""
    }, {
        "Address": {
            "City": "Cheverly",
            "State": "MD",
            "Street": "5501 Columbia Park",
            "Zip": "20785"
        },
        "Code": "D11",
        "Lat": 38.9166318546,
        "LineCode1": "OR",
        "LineCode2": null,
        "LineCode3": null,
        "LineCode4": null,
        "Lon": -76.916628044,
        "Name": "Cheverly",
        "StationTogether1": "",
        "StationTogether2": ""
    }, {
        "Address": {
            "City": "Hyattsville",
            "State": "MD",
            "Street": "3000 Pennsy Drive",
            "Zip": "20785"
        },
        "Code": "D12",
        "Lat": 38.9335062344,
        "LineCode1": "OR",
        "LineCode2": null,
        "LineCode3": null,
        "LineCode4": null,
        "Lon": -76.8911979676,
        "Name": "Landover",
        "StationTogether1": "",
        "StationTogether2": ""
    }, {
        "Address": {
            "City": "New Carrollton",
            "State": "MD",
            "Street": "4700 Garden City Drive",
            "Zip": "20784"
        },
        "Code": "D13",
        "Lat": 38.9477848558,
        "LineCode1": "OR",
        "LineCode2": null,
        "LineCode3": null,
        "LineCode4": null,
        "Lon": -76.8718412865,
        "Name": "New Carrollton",
        "StationTogether1": "",
        "StationTogether2": ""
    }, {
            "Address": {
                "City": "Fairfax",
                "State": "VA",
                "Street": "9550 Saintsbury Drive",
                "Zip": "22031"
            },
            "Code": "K08",
            "Lat": 38.8776011238,
            "LineCode1": "OR",
            "LineCode2": null,
            "LineCode3": null,
            "LineCode4": null,
            "Lon": -77.2726222569,
            "Name": "Vienna",
            "StationTogether1": "",
            "StationTogether2": ""
        }, {
            "Address": {
                "City": "Vienna",
                "State": "VA",
                "Street": "2700 Gallows Road",
                "Zip": "22180"
            },
            "Code": "K07",
            "Lat": 38.8836251359,
            "LineCode1": "OR",
            "LineCode2": null,
            "LineCode3": null,
            "LineCode4": null,
            "Lon": -77.2271606721,
            "Name": "Dunn Loring",
            "StationTogether1": "",
            "StationTogether2": ""
        }, {
            "Address": {
                "City": "Falls Church",
                "State": "VA",
                "Street": "7040 Haycock Road",
                "Zip": "22043"
            },
            "Code": "K06",
            "Lat": 38.900780551,
            "LineCode1": "OR",
            "LineCode2": null,
            "LineCode3": null,
            "LineCode4": null,
            "Lon": -77.1890948225,
            "Name": "W Falls Church",
            "StationTogether1": "",
            "StationTogether2": ""
        }, {
            "Address": {
                "City": "Arlington",
                "State": "VA",
                "Street": "2001 N. Sycamore St.",
                "Zip": "22205"
            },
            "Code": "K05",
            "Lat": 38.8859531663,
            "LineCode1": "OR",
            "LineCode2": "SV",
            "LineCode3": null,
            "LineCode4": null,
            "Lon": -77.1568830199,
            "Name": "E Falls Church",
            "StationTogether1": "",
            "StationTogether2": ""
        }, {
            "Address": {
                "City": "Arlington",
                "State": "VA",
                "Street": "4230 Fairfax Drive",
                "Zip": "22201"
            },
            "Code": "K04",
            "Lat": 38.8821828738,
            "LineCode1": "OR",
            "LineCode2": "SV",
            "LineCode3": null,
            "LineCode4": null,
            "Lon": -77.113168835,
            "Name": "Ballston",
            "StationTogether1": "",
            "StationTogether2": ""
        }, {
            "Address": {
                "City": "Arlington",
                "State": "VA",
                "Street": "3600 Fairfax Drive",
                "Zip": "22201"
            },
            "Code": "K03",
            "Lat": 38.8833661518,
            "LineCode1": "OR",
            "LineCode2": "SV",
            "LineCode3": null,
            "LineCode4": null,
            "Lon": -77.1029772942,
            "Name": "Virginia Square",
            "StationTogether1": "",
            "StationTogether2": ""
        }, {
            "Address": {
                "City": "Arlington",
                "State": "VA",
                "Street": "3100 Wilson Blvd",
                "Zip": "22201"
            },
            "Code": "K02",
            "Lat": 38.886704839,
            "LineCode1": "OR",
            "LineCode2": "SV",
            "LineCode3": null,
            "LineCode4": null,
            "Lon": -77.0953940983,
            "Name": "Clarendon",
            "StationTogether1": "",
            "StationTogether2": ""
        }, {
            "Address": {
                "City": "Arlington",
                "State": "VA",
                "Street": "2100 Wilson Blvd",
                "Zip": "22201"
            },
            "Code": "K01",
            "Lat": 38.8901755312,
            "LineCode1": "OR",
            "LineCode2": "SV",
            "LineCode3": null,
            "LineCode4": null,
            "Lon": -77.087131231,
            "Name": "Court House",
            "StationTogether1": "",
            "StationTogether2": ""
        }, {
            "Address": {
                "City": "Arlington",
                "State": "VA",
                "Street": "1850 N. Moore Street",
                "Zip": "22209"
            },
            "Code": "C05",
            "Lat": 38.8959790962,
            "LineCode1": "BL",
            "LineCode2": "OR",
            "LineCode3": "SV",
            "LineCode4": null,
            "Lon": -77.0709086853,
            "Name": "Rosslyn",
            "StationTogether1": "",
            "StationTogether2": ""
        }, {
            "Address": {
                "City": "Washington",
                "State": "DC",
                "Street": "2301 I St. NW",
                "Zip": "20037"
            },
            "Code": "C04",
            "Lat": 38.9006980092,
            "LineCode1": "BL",
            "LineCode2": "OR",
            "LineCode3": "SV",
            "LineCode4": null,
            "Lon": -77.050277739,
            "Name": "Foggy Bottom",
            "StationTogether1": "",
            "StationTogether2": ""
        }, {
            "Address": {
                "City": "Washington",
                "State": "DC",
                "Street": "900 18th St. NW",
                "Zip": "20006"
            },
            "Code": "C03",
            "Lat": 38.9013128941,
            "LineCode1": "BL",
            "LineCode2": "OR",
            "LineCode3": "SV",
            "LineCode4": null,
            "Lon": -77.0406954151,
            "Name": "Farragut West",
            "StationTogether1": "",
            "StationTogether2": ""
        }, {
            "Address": {
                "City": "Washington",
                "State": "DC",
                "Street": "1400 I St. NW",
                "Zip": "20005"
            },
            "Code": "C02",
            "Lat": 38.9013327968,
            "LineCode1": "BL",
            "LineCode2": "OR",
            "LineCode3": "SV",
            "LineCode4": null,
            "Lon": -77.0336341721,
            "Name": "McPherson Square",
            "StationTogether1": "",
            "StationTogether2": ""
        }, {
            "Address": {
                "City": "Washington",
                "State": "DC",
                "Street": "607 13th St. NW",
                "Zip": "20005"
            },
            "Code": "C01",
            "Lat": 38.8983144732,
            "LineCode1": "BL",
            "LineCode2": "OR",
            "LineCode3": "SV",
            "LineCode4": null,
            "Lon": -77.0280779971,
            "Name": "Metro Center",
            "StationTogether1": "A01",
            "StationTogether2": ""
        }, {
            "Address": {
                "City": "Washington",
                "State": "DC",
                "Street": "302 12th St. NW",
                "Zip": "20004"
            },
            "Code": "D01",
            "Lat": 38.8931808718,
            "LineCode1": "BL",
            "LineCode2": "OR",
            "LineCode3": "SV",
            "LineCode4": null,
            "Lon": -77.0281319984,
            "Name": "Federal Triangle",
            "StationTogether1": "",
            "StationTogether2": ""
        }, {
            "Address": {
                "City": "Washington",
                "State": "DC",
                "Street": "1200 Independence Avenue SW",
                "Zip": "20004"
            },
            "Code": "D02",
            "Lat": 38.888018702,
            "LineCode1": "BL",
            "LineCode2": "OR",
            "LineCode3": "SV",
            "LineCode4": null,
            "Lon": -77.0280662342,
            "Name": "Smithsonian",
            "StationTogether1": "",
            "StationTogether2": ""
        }, {
            "Address": {
                "City": "Washington",
                "State": "DC",
                "Street": "600 Maryland Avenue SW",
                "Zip": "20024"
            },
            "Code": "D03",
            "Lat": 38.8848377279,
            "LineCode1": "BL",
            "LineCode2": "OR",
            "LineCode3": "SV",
            "LineCode4": null,
            "Lon": -77.021908484,
            "Name": "L'Enfant Plaza",
            "StationTogether1": "F03",
            "StationTogether2": ""
        }, {
            "Address": {
                "City": "Washington",
                "State": "DC",
                "Street": "401 3rd Street SW",
                "Zip": "20024"
            },
            "Code": "D04",
            "Lat": 38.8850723551,
            "LineCode1": "BL",
            "LineCode2": "OR",
            "LineCode3": "SV",
            "LineCode4": null,
            "Lon": -77.0158682169,
            "Name": "Federal Center SW",
            "StationTogether1": "",
            "StationTogether2": ""
        }, {
            "Address": {
                "City": "Washington",
                "State": "DC",
                "Street": "355 First Street SE",
                "Zip": "20003"
            },
            "Code": "D05",
            "Lat": 38.8850625009,
            "LineCode1": "BL",
            "LineCode2": "OR",
            "LineCode3": "SV",
            "LineCode4": null,
            "Lon": -77.0051394199,
            "Name": "Capitol South",
            "StationTogether1": "",
            "StationTogether2": ""
        }, {
            "Address": {
                "City": "Washington",
                "State": "DC",
                "Street": "701 Pennsylvania Avenue SE",
                "Zip": "20003"
            },
            "Code": "D06",
            "Lat": 38.8846222608,
            "LineCode1": "BL",
            "LineCode2": "OR",
            "LineCode3": "SV",
            "LineCode4": null,
            "Lon": -76.9960011267,
            "Name": "Eastern Market",
            "StationTogether1": "",
            "StationTogether2": ""
        }, {
            "Address": {
                "City": "Washington",
                "State": "DC",
                "Street": "700 14th Street SE",
                "Zip": "20003"
            },
            "Code": "D07",
            "Lat": 38.8812632736,
            "LineCode1": "BL",
            "LineCode2": "OR",
            "LineCode3": "SV",
            "LineCode4": null,
            "Lon": -76.9854953196,
            "Name": "Potomac Avenue",
            "StationTogether1": "",
            "StationTogether2": ""
        }, {
            "Address": {
                "City": "Washington",
                "State": "DC",
                "Street": "192 19th St. SE",
                "Zip": "20003"
            },
            "Code": "D08",
            "Lat": 38.8867090898,
            "LineCode1": "BL",
            "LineCode2": "OR",
            "LineCode3": "SV",
            "LineCode4": null,
            "Lon": -76.9770889014,
            "Name": "Stadium Armory",
            "StationTogether1": "",
            "StationTogether2": ""
        }, {
            "Address": {
                "City": "Washington",
                "State": "DC",
                "Street": "4000 Minnesota Avenue NE",
                "Zip": "20019"
            },
            "Code": "D09",
            "Lat": 38.899191223,
            "LineCode1": "OR",
            "LineCode2": null,
            "LineCode3": null,
            "LineCode4": null,
            "Lon": -76.9467477336,
            "Name": "Minnesota Avenue",
            "StationTogether1": "",
            "StationTogether2": ""
        }, {
            "Address": {
                "City": "Washington",
                "State": "DC",
                "Street": "4720 Minnesota Avenue NE",
                "Zip": "20019"
            },
            "Code": "D10",
            "Lat": 38.9081784965,
            "LineCode1": "OR",
            "LineCode2": null,
            "LineCode3": null,
            "LineCode4": null,
            "Lon": -76.935256783,
            "Name": "Deanwood",
            "StationTogether1": "",
            "StationTogether2": ""
        }, {
            "Address": {
                "City": "Cheverly",
                "State": "MD",
                "Street": "5501 Columbia Park",
                "Zip": "20785"
            },
            "Code": "D11",
            "Lat": 38.9166318546,
            "LineCode1": "OR",
            "LineCode2": null,
            "LineCode3": null,
            "LineCode4": null,
            "Lon": -76.916628044,
            "Name": "Cheverly",
            "StationTogether1": "",
            "StationTogether2": ""
        }, {
            "Address": {
                "City": "Hyattsville",
                "State": "MD",
                "Street": "3000 Pennsy Drive",
                "Zip": "20785"
            },
            "Code": "D12",
            "Lat": 38.9335062344,
            "LineCode1": "OR",
            "LineCode2": null,
            "LineCode3": null,
            "LineCode4": null,
            "Lon": -76.8911979676,
            "Name": "Landover",
            "StationTogether1": "",
            "StationTogether2": ""
        }, {
            "Address": {
                "City": "New Carrollton",
                "State": "MD",
                "Street": "4700 Garden City Drive",
                "Zip": "20784"
            },
            "Code": "D13",
            "Lat": 38.9477848558,
            "LineCode1": "OR",
            "LineCode2": null,
            "LineCode3": null,
            "LineCode4": null,
            "Lon": -76.8718412865,
            "Name": "New Carrollton",
            "StationTogether1": "",
            "StationTogether2": ""
        }]
}